[
  {
    "name": "Light Up Coffee（下北沢）",
    "lat": 35.65819,
    "lng": 139.66257,
    "date": "2026-02-28",
    "drink": "エチオピア シャンタウェネ",
    "price": 300,
    "comment": ""
  },
  {
    "name": "TRUNK COFFEE（高岳）",
    "lat": 35.174452628492894,
    "lng": 136.915373035564,
    "date": "2026-01-01",
    "drink": "ニカラグア ナチュラル",
    "price": 700,
    "comment": ""
  },
  {
    "name": "珈琲舎ロッセ（町田）",
    "lat": 35.54151037842751,
    "lng": 139.44806545782663,
    "date": "2026-01-10",
    "drink": "ペルー チャンチャマイヨ",
    "price": 580,
    "comment": ""
  },
  {
    "name": "Colour Coffee（熊本）",
    "lat": 32.80343951449163, 
    "lng": 130.71255797089094,
    "date": "2026-03-07",
    "drink": "エチオピア チレ",
    "price": 750,
    "comment": ""
  },
  {
    "name": "AND COFFEE BREWERS（熊本）",
    "lat": 32.80188798041991, 
    "lng": 130.70974684230697,
    "date": "2026-03-07",
    "drink": "ウガンダ ニヤビロンゴ",
    "price": 500,
    "comment": ""
  },
  {
    "name": "草千里珈琲焙煎所（阿蘇）",
    "lat": 32.88606388470678, 
    "lng": 131.05433162619033,
    "date": "2026-03-08",
    "drink": "ブラジル・グアテマラ ブレンド",
    "price": 500,
    "comment": ""
  },
  {
    "name": "hazeru coffee BAKE STAND（富山）",
    "lat": 36.701681328995384, 
    "lng": 137.2079273676822,
    "date": "2026-03-11",
    "drink": "BAKE STAND BLEND",
    "price": 500,
    "comment": ""
  },
  {
    "name": "TAKAO MOUNTAIN HOUSE（高尾）",
    "lat": 35.63143469195577, 
    "lng": 139.26835359098808,
    "date": "2026-01-11",
    "drink": "",
    "price": null,
    "comment": ""
  },
  {
    "name": "FUGLEN HANEGIKOEN（梅ヶ丘）",
    "lat": 35.65675621708575, 
    "lng": 139.6548180477669,
    "date": "2026-01-12",
    "drink": "エチオピア ゴググ",
    "price": 450,
    "comment": ""
  },
  {
    "name": "Light Up Coffee（下北沢）",
    "lat": 35.65819, 
    "lng": 139.66257,
    "date": "2026-01-12",
    "drink": "グアテマラ ラストロハス",
    "price": 300,
    "comment": ""
  },
  {
    "name": "SWITCH COFFEE TOKYO（代々木八幡）",
    "lat": 35.669211429531444, 
    "lng": 139.6882563075809,
    "date": "2026-01-13",
    "drink": "エチオピア（モーニングコーヒー）",
    "price": 320,
    "comment": ""
  },
  {
    "name": "298珈琲焙煎所（つくば）",
    "lat": 36.1045084149655, 
    "lng": 140.04800284308087,
    "date": "2026-01-17",
    "drink": "ニカラグア",
    "price": 450,
    "comment": ""
  },
  {
    "name": "千年一日珈琲焙煎所（つくば）",
    "lat": 36.10544988597259, 
    "lng": 140.10859931183904,
    "date": "2026-01-24",
    "drink": "エチオピア",
    "price": 495,
    "comment": ""
  },
  {
    "name": "TRIBE COFFEE（つくば）",
    "lat": 36.075028770992525, 
    "lng": 140.11204833003583,
    "date": "2026-01-28",
    "drink": "エチオピア クジ",
    "price": 500,
    "comment": ""
  },
  {
    "name": "FUGLEN HANEGIKOEN（梅ヶ丘）",
    "lat": 35.65675621708575, 
    "lng": 139.6548180477669,
    "date": "2026-02-06",
    "drink": "ホンジュラス",
    "price": 450,
    "comment": ""
  },
  {
    "name": "はしびと珈琲（山中湖）",
    "lat": 35.422751078483785, 
    "lng": 138.8501823679288,
    "date": "2026-02-07",
    "drink": "（ホットコーヒー ミディアム）",
    "price": 500,
    "comment": ""
  },
  {
    "name": "みちて、めぐりて（山中湖）",
    "lat": 35.414215393936786, 
    "lng": 138.8953503276843,
    "date": "2026-02-08",
    "drink": "（ドリップコーヒー）",
    "price": 500,
    "comment": ""
  },
  {
    "name": "LEPO COFFEE STAND（用賀）",
    "lat": 35.62827952155665, 
    "lng": 139.63121399630137,
    "date": "2026-02-14",
    "drink": "エチオピア イルガチェフェ",
    "price": 750,
    "comment": ""
  },
  {
    "name": "COMMON & CAFE COFFFEE ROASTERY（宇都宮）",
    "lat": 36.868289750304974, 
    "lng": 140.02653740127892,
    "date": "2026-02-16",
    "drink": "エチオピア グジ",
    "price": 550,
    "comment": ""
  },
  {
    "name": "meguri coffee（日光）",
    "lat": 36.75221058438374, 
    "lng": 139.6070404233933,
    "date": "2026-02-17",
    "drink": "エチオピア コンゴ",
    "price": 594,
    "comment": ""
  },
  {
    "name": "Jubilee Coffee & Roaster（目黒）",
    "lat": 35.63573019969184, 
    "lng": 139.72165902858944,
    "date": "2026-02-19",
    "drink": "ケニア",
    "price": null,
    "comment": ""
  },
  {
    "name": "日升庵（つくば）",
    "lat": 36.21242091493653, 
    "lng": 140.09593702948675,
    "date": "2026-02-22",
    "drink": "（ブレンドコーヒー）",
    "price": 550,
    "comment": ""
  },
  {
    "name": "Chapio Coffee Brewers（つくば）",
    "lat": 36.0893184630991, 
    "lng": 140.15262880313176,
    "date": "2026-02-23",
    "drink": "エチオピア",
    "price": 650,
    "comment": ""
  },
  {
    "name": "南鉄カフェ（高森）",
    "lat": 32.819901578100236, 
    "lng": 131.12249908018228,
    "date": "2026-03-09",
    "drink": "（ブレンドコーヒー）",
    "price": 600,
    "comment": ""
  },
  {
    "name": "やまむろ（富山）",
    "lat": 36.69163113603302, 
    "lng": 137.2136358937681, 
    "date": "2026-03-13",
    "drink": "（モーニング）",
    "price": null,
    "comment": ""
  },
  {
    "name": "Sixth or Third Coffee Stand（富山）",
    "lat": 36.69055066122395, 
    "lng": 137.21391925784354, 
    "date": "2026-03-13",
    "drink": "エチオピア チェルベサ",
    "price": 500,
    "comment": ""
  },
  {
    "name": "T&M COFFEE（沖縄）",
    "lat": 26.215826597025007, 
    "lng": 127.68479935834296, 
    "date": "2026-03-15",
    "drink": "ブラジル",
    "price": 540,
    "comment": ""
  },
  {
    "name": "たそかれ珈琲（沖縄）",
    "lat": 26.217736674596765, 
    "lng": 127.68275514211858,
    "date": "2026-03-16",
    "drink": "酸味の珈琲",
    "price": 600,
    "comment": ""
  },
  {
    "name": "THE ROSA COFFEE（沖縄）",
    "lat": 26.20388363500794, 
    "lng": 127.67084209351152, 
    "date": "2026-03-17",
    "drink": "ニカラグア エル・ポルべニール",
    "price": 500,
    "comment": ""
  },
  {
    "name": "KARIYUSHI COFFEE AND BEAR STAND（沖縄）",
    "lat": 26.21434613355459, 
    "lng": 127.68922296179583, 
    "date": "2026-03-17",
    "drink": "（ブレンドコーヒー）",
    "price": 650,
    "comment": ""
  },
  {
    "name": "LOCALO COFFEE（沖縄）",
    "lat": 26.15767267074045, 
    "lng": 127.65062002676034, 
    "date": "2026-03-19",
    "drink": "ルワンダ",
    "price": 650,
    "comment": ""
  },
  {
    "name": "KNOWS COFFEE（津田沼）",
    "lat": 35.68984275492044, 
    "lng": 140.0238388693421, 
    "date": "2026-03-29",
    "drink": "コナブレンド",
    "price": 610,
    "comment": ""
  }
]