[
  {
    "name": "Light Up Coffee（下北沢）",
    "lat": 35.65819,
    "lng": 139.66257,
    "date": "2026-02-28",
    "drink": "エチオピア シャンタウェネ",
    "price": 300,
    "comment": ""
  },
  {
    "name": "TRUNK COFFEE（高岳）",
    "lat": 35.174452628492894,
    "lng": 136.915373035564,
    "date": "2026-01-01",
    "drink": "ニカラグア ナチュラル",
    "price": 700,
    "comment": ""
  },
  {
    "name": "珈琲舎ロッセ（町田）",
    "lat": 35.54151037842751,
    "lng": 139.44806545782663,
    "date": "2026-01-10",
    "drink": "ペルー チャンチャマイヨ",
    "price": 580,
    "comment": ""
  },
  {
    "name": "Colour Coffee（熊本）",
    "lat": 32.80343951449163, 
    "lng": 130.71255797089094,
    "date": "2026-03-07",
    "drink": "エチオピア チレ",
    "price": 750,
    "comment": ""
  },
  {
    "name": "AND COFFEE BREWERS（熊本）",
    "lat": 32.80188798041991, 
    "lng": 130.70974684230697,
    "date": "2026-03-07",
    "drink": "ウガンダ ニヤビロンゴ",
    "price": 500,
    "comment": ""
  },
  {
    "name": "草千里珈琲焙煎所（阿蘇）",
    "lat": 32.88606388470678, 
    "lng": 131.05433162619033,
    "date": "2026-03-08",
    "drink": "ブラジル・グアテマラ ブレンド",
    "price": 500,
    "comment": ""
  },
  {
    "name": "hazeru coffee BAKE STAND（富山）",
    "lat": 36.701681328995384, 
    "lng": 137.2079273676822,
    "date": "2026-03-11",
    "drink": "BAKE STAND BLEND",
    "price": 500,
    "comment": ""
  },
  {
    "name": "TAKAO MOUNTAIN HOUSE（高尾）",
    "lat": 35.63143469195577, 
    "lng": 139.26835359098808,
    "date": "2026-01-11",
    "drink": "",
    "price": null,
    "comment": ""
  },
  {
    "name": "FUGLEN HANEGIKOEN（梅ヶ丘）",
    "lat": 35.65675621708575, 
    "lng": 139.6548180477669,
    "date": "2026-01-12",
    "drink": "エチオピア ゴググ",
    "price": 450,
    "comment": ""
  },
  {
    "name": "Light Up Coffee（下北沢）",
    "lat": 35.65819, 
    "lng": 139.66257,
    "date": "2026-01-12",
    "drink": "グアテマラ ラストロハス",
    "price": 300,
    "comment": ""
  },
  {
    "name": "SWITCH COFFEE TOKYO（代々木八幡）",
    "lat": 35.669211429531444, 
    "lng": 139.6882563075809,
    "date": "2026-01-13",
    "drink": "エチオピア（モーニングコーヒー）",
    "price": 320,
    "comment": ""
  },
  {
    "name": "298珈琲焙煎所（つくば）",
    "lat": 36.1045084149655, 
    "lng": 140.04800284308087,
    "date": "2026-01-17",
    "drink": "ニカラグア",
    "price": 450,
    "comment": ""
  },
  {
    "name": "千年一日珈琲焙煎所（つくば）",
    "lat": 36.10544988597259, 
    "lng": 140.10859931183904,
    "date": "2026-01-24",
    "drink": "エチオピア",
    "price": 495,
    "comment": ""
  },
  {
    "name": "TRIBE COFFEE（つくば）",
    "lat": 36.075028770992525, 
    "lng": 140.11204833003583,
    "date": "2026-01-28",
    "drink": "エチオピア クジ",
    "price": 500,
    "comment": ""
  },
  {
    "name": "FUGLEN HANEGIKOEN（梅ヶ丘）",
    "lat": 35.65675621708575, 
    "lng": 139.6548180477669,
    "date": "2026-02-06",
    "drink": "ホンジュラス",
    "price": 450,
    "comment": ""
  },
  {
    "name": "はしびと珈琲（山中湖）",
    "lat": 35.422751078483785, 
    "lng": 138.8501823679288,
    "date": "2026-02-07",
    "drink": "（ホットコーヒー ミディアム）",
    "price": 500,
    "comment": ""
  },
  {
    "name": "みちて、めぐりて（山中湖）",
    "lat": 35.414215393936786, 
    "lng": 138.8953503276843,
    "date": "2026-02-08",
    "drink": "（ドリップコーヒー）",
    "price": 500,
    "comment": ""
  }
]