[
  {
    "name": "Light Up Coffee（下北沢）",
    "lat": 35.65819,
    "lng": 139.66257,
    "date": "2026-02-28",
    "drink": "エチオピア シャンタウェネ",
    "price": 300,
    "comment": "あの時以来にシャンタウェネが帰ってきた！"
  },
  {
    "name": "TRUNK COFFEE（高岳）",
    "lat": 35.174452628492894,
    "lng": 136.915373035564,
    "date": "2026-01-01",
    "drink": "ニカラグア ナチュラル",
    "price": 700,
    "comment": ""
  },
  {
    "name": "珈琲舎ロッセ（町田）",
    "lat": 35.54151037842751,
    "lng": 139.44806545782663,
    "date": "2026-01-10",
    "drink": "ペルー チャンチャマイヨ",
    "price": 580,
    "comment": ""
  },
  {
    "name": "Colour Coffee（熊本）",
    "lat": 32.80343951449163, 
    "lng": 130.71255797089094,
    "date": "2026-03-07",
    "drink": "エチオピア チレ",
    "price": 750,
    "comment": ""
  },
  {
    "name": "AND COFFEE BREWERS",
    "lat": 32.80188798041991, 
    "lng": 130.70974684230697,
    "date": "2026-03-07",
    "drink": "ウガンダ ニヤビロンゴ",
    "price": 500,
    "comment": ""
  }
]